[
    {
        "id": 796,
        "name": "Bagerhat District",
        "state_code": "05",
        "latitude": "22.66024360",
        "longitude": "89.78954780",
        "type": null
    },
    {
        "id": 802,
        "name": "Bahadia",
        "state_code": "33",
        "latitude": "23.78987120",
        "longitude": "90.16714830",
        "type": null
    },
    {
        "id": 752,
        "name": "Bandarban District",
        "state_code": "01",
        "latitude": "21.83110020",
        "longitude": "92.36863210",
        "type": null
    },
    {
        "id": 784,
        "name": "Barguna District",
        "state_code": "02",
        "latitude": "22.09529150",
        "longitude": "90.11206960",
        "type": null
    },
    {
        "id": 818,
        "name": "Barisal District",
        "state_code": "06",
        "latitude": "22.70220980",
        "longitude": "90.36963160",
        "type": null
    },
    {
        "id": 807,
        "name": "Barisal Division",
        "state_code": "A",
        "latitude": "22.38111310",
        "longitude": "90.33718890",
        "type": null
    },
    {
        "id": 756,
        "name": "Bhola District",
        "state_code": "07",
        "latitude": "22.17853150",
        "longitude": "90.71010230",
        "type": null
    },
    {
        "id": 797,
        "name": "Bogra District",
        "state_code": "03",
        "latitude": "24.85104020",
        "longitude": "89.36972250",
        "type": null
    },
    {
        "id": 810,
        "name": "Brahmanbaria District",
        "state_code": "04",
        "latitude": "23.96081810",
        "longitude": "91.11150140",
        "type": null
    },
    {
        "id": 768,
        "name": "Chandpur District",
        "state_code": "09",
        "latitude": "23.25131480",
        "longitude": "90.85178460",
        "type": null
    },
    {
        "id": 761,
        "name": "Chapai Nawabganj District",
        "state_code": "45",
        "latitude": "24.74131110",
        "longitude": "88.29120690",
        "type": null
    },
    {
        "id": 785,
        "name": "Chittagong District",
        "state_code": "10",
        "latitude": "22.51501050",
        "longitude": "91.75388170",
        "type": null
    },
    {
        "id": 803,
        "name": "Chittagong Division",
        "state_code": "B",
        "latitude": "23.17931570",
        "longitude": "91.98815270",
        "type": null
    },
    {
        "id": 788,
        "name": "Chuadanga District",
        "state_code": "12",
        "latitude": "23.61605120",
        "longitude": "88.82630060",
        "type": null
    },
    {
        "id": 763,
        "name": "Comilla District",
        "state_code": "08",
        "latitude": "23.45756670",
        "longitude": "91.18089960",
        "type": null
    },
    {
        "id": 751,
        "name": "Cox's Bazar District",
        "state_code": "11",
        "latitude": "21.56406260",
        "longitude": "92.02821290",
        "type": null
    },
    {
        "id": 771,
        "name": "Dhaka District",
        "state_code": "13",
        "latitude": "23.81051400",
        "longitude": "90.33718890",
        "type": null
    },
    {
        "id": 760,
        "name": "Dhaka Division",
        "state_code": "C",
        "latitude": "23.95357420",
        "longitude": "90.14949880",
        "type": null
    },
    {
        "id": 783,
        "name": "Dinajpur District",
        "state_code": "14",
        "latitude": "25.62791230",
        "longitude": "88.63317580",
        "type": null
    },
    {
        "id": 762,
        "name": "Faridpur District",
        "state_code": "15",
        "latitude": "23.54239190",
        "longitude": "89.63089210",
        "type": null
    },
    {
        "id": 816,
        "name": "Feni District",
        "state_code": "16",
        "latitude": "22.94087840",
        "longitude": "91.40666460",
        "type": null
    },
    {
        "id": 795,
        "name": "Gaibandha District",
        "state_code": "19",
        "latitude": "25.32969280",
        "longitude": "89.54296520",
        "type": null
    },
    {
        "id": 798,
        "name": "Gazipur District",
        "state_code": "18",
        "latitude": "24.09581710",
        "longitude": "90.41251810",
        "type": null
    },
    {
        "id": 792,
        "name": "Gopalganj District",
        "state_code": "17",
        "latitude": "26.48315840",
        "longitude": "84.43655000",
        "type": null
    },
    {
        "id": 805,
        "name": "Habiganj District",
        "state_code": "20",
        "latitude": "24.47712360",
        "longitude": "91.45065650",
        "type": null
    },
    {
        "id": 808,
        "name": "Jamalpur District",
        "state_code": "21",
        "latitude": "25.08309260",
        "longitude": "89.78532180",
        "type": null
    },
    {
        "id": 757,
        "name": "Jessore District",
        "state_code": "22",
        "latitude": "23.16340140",
        "longitude": "89.21816640",
        "type": null
    },
    {
        "id": 778,
        "name": "Jhalokati District",
        "state_code": "25",
        "latitude": "22.57208000",
        "longitude": "90.18696440",
        "type": null
    },
    {
        "id": 789,
        "name": "Jhenaidah District",
        "state_code": "23",
        "latitude": "23.54498730",
        "longitude": "89.17260310",
        "type": null
    },
    {
        "id": 806,
        "name": "Joypurhat District",
        "state_code": "24",
        "latitude": "25.09473490",
        "longitude": "89.09449370",
        "type": null
    },
    {
        "id": 786,
        "name": "Khagrachari District",
        "state_code": "29",
        "latitude": "23.13217510",
        "longitude": "91.94902100",
        "type": null
    },
    {
        "id": 811,
        "name": "Khulna District",
        "state_code": "27",
        "latitude": "22.67377350",
        "longitude": "89.39665810",
        "type": null
    },
    {
        "id": 775,
        "name": "Khulna Division",
        "state_code": "D",
        "latitude": "22.80878160",
        "longitude": "89.24671910",
        "type": null
    },
    {
        "id": 779,
        "name": "Kishoreganj District",
        "state_code": "26",
        "latitude": "24.42604570",
        "longitude": "90.98206680",
        "type": null
    },
    {
        "id": 793,
        "name": "Kurigram District",
        "state_code": "28",
        "latitude": "25.80724140",
        "longitude": "89.62947460",
        "type": null
    },
    {
        "id": 774,
        "name": "Kushtia District",
        "state_code": "30",
        "latitude": "23.89069950",
        "longitude": "89.10993680",
        "type": null
    },
    {
        "id": 819,
        "name": "Lakshmipur District",
        "state_code": "31",
        "latitude": "22.94467440",
        "longitude": "90.82819070",
        "type": null
    },
    {
        "id": 780,
        "name": "Lalmonirhat District",
        "state_code": "32",
        "latitude": "25.99233980",
        "longitude": "89.28472510",
        "type": null
    },
    {
        "id": 817,
        "name": "Madaripur District",
        "state_code": "36",
        "latitude": "23.23933460",
        "longitude": "90.18696440",
        "type": null
    },
    {
        "id": 776,
        "name": "Meherpur District",
        "state_code": "39",
        "latitude": "23.80519910",
        "longitude": "88.67235780",
        "type": null
    },
    {
        "id": 794,
        "name": "Moulvibazar District",
        "state_code": "38",
        "latitude": "24.30953440",
        "longitude": "91.73149030",
        "type": null
    },
    {
        "id": 790,
        "name": "Munshiganj District",
        "state_code": "35",
        "latitude": "23.49809310",
        "longitude": "90.41266210",
        "type": null
    },
    {
        "id": 766,
        "name": "Mymensingh District",
        "state_code": "34",
        "latitude": "24.75385750",
        "longitude": "90.40729190",
        "type": null
    },
    {
        "id": 758,
        "name": "Mymensingh Division",
        "state_code": "H",
        "latitude": "24.71362000",
        "longitude": "90.45023680",
        "type": null
    },
    {
        "id": 814,
        "name": "Naogaon District",
        "state_code": "48",
        "latitude": "24.91315970",
        "longitude": "88.75309520",
        "type": null
    },
    {
        "id": 769,
        "name": "Narail District",
        "state_code": "43",
        "latitude": "23.11629290",
        "longitude": "89.58404040",
        "type": null
    },
    {
        "id": 770,
        "name": "Narayanganj District",
        "state_code": "40",
        "latitude": "23.71466010",
        "longitude": "90.56360900",
        "type": null
    },
    {
        "id": 787,
        "name": "Natore District",
        "state_code": "44",
        "latitude": "24.41024300",
        "longitude": "89.00761770",
        "type": null
    },
    {
        "id": 764,
        "name": "Netrokona District",
        "state_code": "41",
        "latitude": "24.81032840",
        "longitude": "90.86564150",
        "type": null
    },
    {
        "id": 772,
        "name": "Nilphamari District",
        "state_code": "46",
        "latitude": "25.84827980",
        "longitude": "88.94141340",
        "type": null
    },
    {
        "id": 815,
        "name": "Noakhali District",
        "state_code": "47",
        "latitude": "22.87237890",
        "longitude": "91.09731840",
        "type": null
    },
    {
        "id": 754,
        "name": "Pabna District",
        "state_code": "49",
        "latitude": "24.15850500",
        "longitude": "89.44807180",
        "type": null
    },
    {
        "id": 800,
        "name": "Panchagarh District",
        "state_code": "52",
        "latitude": "26.27087050",
        "longitude": "88.59517510",
        "type": null
    },
    {
        "id": 777,
        "name": "Patuakhali District",
        "state_code": "51",
        "latitude": "22.22486320",
        "longitude": "90.45475030",
        "type": null
    },
    {
        "id": 791,
        "name": "Pirojpur District",
        "state_code": "50",
        "latitude": "22.57907440",
        "longitude": "89.97592640",
        "type": null
    },
    {
        "id": 773,
        "name": "Rajbari District",
        "state_code": "53",
        "latitude": "23.71513400",
        "longitude": "89.58748190",
        "type": null
    },
    {
        "id": 813,
        "name": "Rajshahi District",
        "state_code": "54",
        "latitude": "24.37330870",
        "longitude": "88.60487160",
        "type": null
    },
    {
        "id": 753,
        "name": "Rajshahi Division",
        "state_code": "E",
        "latitude": "24.71057760",
        "longitude": "88.94138650",
        "type": null
    },
    {
        "id": 809,
        "name": "Rangamati Hill District",
        "state_code": "56",
        "latitude": "22.73241730",
        "longitude": "92.29851340",
        "type": null
    },
    {
        "id": 759,
        "name": "Rangpur District",
        "state_code": "55",
        "latitude": "25.74679250",
        "longitude": "89.25083350",
        "type": null
    },
    {
        "id": 750,
        "name": "Rangpur Division",
        "state_code": "F",
        "latitude": "25.84833880",
        "longitude": "88.94138650",
        "type": null
    },
    {
        "id": 799,
        "name": "Satkhira District",
        "state_code": "58",
        "latitude": "22.31548120",
        "longitude": "89.11145250",
        "type": null
    },
    {
        "id": 801,
        "name": "Shariatpur District",
        "state_code": "62",
        "latitude": "23.24232140",
        "longitude": "90.43477110",
        "type": null
    },
    {
        "id": 755,
        "name": "Sherpur District",
        "state_code": "57",
        "latitude": "25.07462350",
        "longitude": "90.14949040",
        "type": null
    },
    {
        "id": 781,
        "name": "Sirajganj District",
        "state_code": "59",
        "latitude": "24.31411150",
        "longitude": "89.56996150",
        "type": null
    },
    {
        "id": 812,
        "name": "Sunamganj District",
        "state_code": "61",
        "latitude": "25.07145350",
        "longitude": "91.39916270",
        "type": null
    },
    {
        "id": 767,
        "name": "Sylhet District",
        "state_code": "60",
        "latitude": "24.89933570",
        "longitude": "91.87004730",
        "type": null
    },
    {
        "id": 765,
        "name": "Sylhet Division",
        "state_code": "G",
        "latitude": "24.70498110",
        "longitude": "91.67606910",
        "type": null
    },
    {
        "id": 782,
        "name": "Tangail District",
        "state_code": "63",
        "latitude": "24.39174270",
        "longitude": "89.99482570",
        "type": null
    },
    {
        "id": 804,
        "name": "Thakurgaon District",
        "state_code": "64",
        "latitude": "26.04183920",
        "longitude": "88.42826160",
        "type": null
    }]